[
   {
      "organizationName": "Sound Generations",
      "description": "Meals on Wheels - Kirkland: Volunteer Backup Packers Needed!",
      "website": "https://soundgenerations.org/",
      "address": "352 Kirkland Avenue WA 98033",
      "category": "meal service",
      "contact": "info@soundgenerations.org",
      "long": -122.20105,
      "lat": 47.67637,
      "city": "Kirkland",
      "imgdir": "./image_folder/mealservice.png"
   },
   {
      "organizationName": "Lifelong",
      "description": "Warehouse Volunteer-Chicken Soup Brigade",
      "website": "https://www.lifelong.org/",
      "address": "210 S LUCILE ST SEATTLE, WA 98108-0547",
      "category": "meal service",
      "contact": "volunteer@lifelong.org",
      "long": -122.33174,
      "lat": 47.55387,
      "city": "Seattle",
      "imgdir": "./image_folder/mealservice.png"
   },
   {
      "organizationName": "American Red Cross",
      "description": "Help Those Who Are Impacted by Home Fires, Join the American Red Cross",
      "website": "https://www.redcross.org/",
      "address": "1235 South Tacoma Way Tacoma, WA 98409",
      "category": "disaster",
      "contact": "support@redcrosstraining.org",
      "long": -122.45036,
      "lat": 47.23159,
      "city": "Tacoma",
      "imgdir": "./image_folder/disaster.png"
   },
   {
      "organizationName": "American Red Cross",
      "description": "Red Cross, Join the Home Fire Response Team",
      "website": "https://www.redcross.org/",
      "address": "1235 South Tacoma Way Tacoma, WA 98409",
      "category": "disaster",
      "contact": "support@redcrosstraining.org",
      "long": -122.45036,
      "lat": 47.23159,
      "city": "Tacoma",
      "imgdir": "./image_folder/disaster.png"
   },
   {
      "organizationName": "American Red Cross",
      "description": "Use your communication skills to help tell the Red Cross story",
      "website": "https://www.redcross.org/",
      "address": "1235 South Tacoma Way Tacoma, WA 98409",
      "category": "technology",
      "contact": "support@redcrosstraining.org",
      "long": -122.45036,
      "lat": 47.23159,
      "city": "Tacoma",
      "imgdir": "./image_folder/technology.png"
   },
   {
      "organizationName": "American Red Cross",
      "description": "Help as a Disaster Mental Health Volunteer",
      "website": "https://www.redcross.org/",
      "address": "1235 South Tacoma Way Tacoma, WA 98409",
      "category": "health",
      "contact": "support@redcrosstraining.org",
      "long": -122.45036,
      "lat": 47.23159,
      "city": "Tacoma",
      "imgdir": "./image_folder/health.png"
   },
   {
      "organizationName":"Beacon Food Forest",
      "description": "Work on a community food forest",
      "website": "https://beaconfoodforest.org/",
      "address": "16th Ave S / S Dakota St Seattle, WA 98108",
      "category": "repair",
      "contact": "cherry@foodforest.ngo",
      "long": -122.31270,
      "lat": 47.56741,
      "city": "Seattle",
      "imgdir": "./image_folder/repair.png"
   },
   {
      "organizationName": "Westside Baby",
      "description": "Bring JOY to Children This Winter! Collect winter coats for WestSide Baby",
      "website": "https://westsidebaby.org/",
      "address": "10002 14th Ave. SW Seattle, WA 98146",
      "category": "advocacy",
      "contact": "mari@westsidebaby.org",
      "long": -122.35221,
      "lat": 47.51348,
      "city": "Seattle",
      "imgdir": "./image_folder/advocacy.png"
   },
   {
      "organizationName": "Spokane Helpers Network",
      "description": "VOLUNTEER COORDINATOR",
      "website": "https://www.facebook.com/spokanehelpers",
      "address": "PO Box 30454 Spokane, WA 99223",
      "category": "clerical",
      "contact": "infospokanehelpersnetwork@gmail.com",
      "long": -117.36906,
      "lat": 47.60693,
      "city": "Spokane",
      "imgdir": "./image_folder/clerical.png"
   },
   {
      "organizationName": "Providence ElderPlace",
      "description": "Adult Day Health Assistant who knows sign language",
      "website": "http://washington.providence.org/senior-care/elderplace/volunteer/",
      "address": "8632 160th Ave NE Suite 100 Redmond , WA 98052",
      "category": "aging/disabilities",
      "contact": "cara.aguilera@providence.org",
      "long": -122.12717,
      "lat": 47.67978,
      "city": "Redmond",
      "imgdir": "./image_folder/aging.png"
   },
   {
      "organizationName": "United Way of King County",
      "description": "In-Person Tax Preparation Specialist at Lake City Neighborhood Service Center",
      "website": "http://www.uwkc.org/",
      "address": "720 2nd Ave Seattle, WA 98104",
      "category": "accounting",
      "contact": "volunteers@uwkc.org",
      "long": -122.33344,
      "lat": 47.60391,
      "city": "Seattle",
      "imgdir": "./image_folder/accounting.png"
   },
   {
      "organizationName": "United Way of King County",
      "description": "In-Person Tax Preparation Specialist at Seattle Public Library Central Location",
      "website": "http://www.uwkc.org/",
      "address": "720 2nd Ave Seattle, WA 98104",
      "category": "accounting",
      "contact": "volunteers@uwkc.org",
      "long": -122.33344,
      "lat": 47.60391,
      "city": "Seattle",
      "imgdir": "./image_folder/accounting.png"
   },
   {
      "organizationName": "Emergency Food Network",
      "description": "Winter Weeding at Mother Earth Farm",
      "website": "http://www.efoodnet.org/",
      "address": "15208 102nd Street E Puyallup, WA 98374",
      "category": "basic needs",
      "contact": "CarolineC@efoodnet.org",
      "long": -122.22618,
      "lat": 47.15251,
      "city": "Puyallup",
      "imgdir": "./image_folder/basicneeds.png"
   },
   {
      "organizationName": "Emergency Food Network",
      "description": "Host a Holiday Food Drive!",
      "website": "http://www.efoodnet.org/",
      "address": "15208 102nd Street E Puyallup, WA 98374",
      "category": "basic needs",
      "contact": "CarolineC@efoodnet.org",
      "long": -122.22618,
      "lat": 47.15251,
      "city": "Puyallup",
      "imgdir": "./image_folder/basicneeds.png"
   },
   {
      "organizationName": "Sound Generations",
      "description": "Meals on Wheels - Federal Way: Put your organizational skills to good use!",
      "website": "https://soundgenerations.org/",
      "address": "352 Kirkland Avenue WA 98033",
      "category": "admin",
      "contact": "info@soundgenerations.org",
      "long": -122.20105,
      "lat": 47.67637,
      "city": "Kirkland",
      "imgdir": "./image_folder/admin.png"
   },
   {
      "organizationName": "Washington Trails Association",
      "description": "Volunteer to improve trails at Hauser Lake Conservation Area",
      "website": "http://www.wta.org/",
      "address": "705 2nd Ave. Suite 300 Seattle, WA 98104",
      "category": "environment",
      "contact": "hweiler@wta.org",
      "long": -122.33362,
      "lat": 47.60319,
      "city": "Seattle",
      "imgdir": "./image_folder/environment.png"
   },
   {
      "organizationName": "Jill's House",
      "description": "Weekend Adventure one-on-one buddy",
      "website": "https://www.jillshouse.org/puget-sound/",
      "address": "15999 Sidney Rd SE Port Orchard, WA 98367",
      "category": "caregiver",
      "contact": "kymberly.mottaz@jillshouse.org",
      "long": -122.66261,
      "lat": 47.40668,
      "city": "Port Orchard",
      "imgdir": "./image_folder/caregiver.png"
   },
   {
      "organizationName": "Jill's House",
      "description": "Weekend Adventure one-on-one buddy",
      "website": "https://www.jillshouse.org/puget-sound/",
      "address": "15999 Sidney Rd SE Port Orchard, WA 98367",
      "category": "mentor",
      "contact": "kymberly.mottaz@jillshouse.org",
      "long": -122.66261,
      "lat": 47.40668,
      "city": "Port Orchard",
      "imgdir": "./image_folder/mentor.png"
   },
   {
      "organizationName": "U-District Foudation Mentoring",
      "description": "Fall Mentoring Recruitment Campaign",
      "website": "https://udistrictpt.com/nonprofit-foundation/foundation-mentoring-info/",
      "address": "1216 S. Kahuna Dr. Spokane Valley, WA 99212",
      "category": "advocacy",
      "contact": "mike@udptfoundation.com",
      "long": -117.33360,
      "lat": 47.64562,
      "city": "Spokane",
      "imgdir": "./image_folder/advocacy.png"
   },
   {
      "organizationName": "U-District Foudation Mentoring",
      "description": "Be a Mentor with the U-District Foundation!",
      "website": "https://udistrictpt.com/nonprofit-foundation/foundation-mentoring-info/",
      "address": "1216 S. Kahuna Dr. Spokane Valley, WA 99212",
      "category": "education",
      "contact": "mike@udptfoundation.com",
      "long": -117.33360,
      "lat": 47.64562,
      "city": "Spokane",
      "imgdir": "./image_folder/education.png"
   },
   {
      "organizationName": "U-District Foudation Mentoring",
      "description": "Site Based Mentoring with the U-District and Communities in Schools",
      "website": "https://udistrictpt.com/nonprofit-foundation/foundation-mentoring-info/",
      "address": "1216 S. Kahuna Dr. Spokane Valley, WA 99212",
      "category": "advocacy",
      "contact": "mike@udptfoundation.com",
      "long": -117.33360,
      "lat": 47.64562,
      "city": "Spokane",
      "imgdir": "./image_folder/advocacy.png"
   },
   {
      "organizationName": "Nisqually Land Trust",
      "description": "Habitat Restoration Work Parties!",
      "website": "http://www.nisquallylandtrust.org/",
      "address": "100 Brown Farm Rd. NE Olympia, WA 98516",
      "category": "environment",
      "contact": "staff@nisquallylandtrust.org",
      "long": -122.71271,
      "lat": 47.07291,
      "city": "Olympia",
      "imgdir": "./image_folder/environment.png"
   },
   {
      "organizationName": "Full Life Care",
      "description": "Friendly 1:1 Calls / Visits to Local Elder",
      "website": "http://www.fulllifecare.org/",
      "address": "4712 35th Ave S Seattle, WA 98118",
      "category": "advocacy",
      "contact": "jessicac@fulllifecare.org",
      "long": -122.28843,
      "lat": 47.56031,
      "city": "Seattle",
      "imgdir": "./image_folder/advocacy.png"
   },
   {
      "organizationName": "Full Life Care",
      "description": "Group Zoom: Show-and-Tell for Adults with Disabilities",
      "website": "http://www.fulllifecare.org/",
      "address": "4712 35th Ave S Seattle, WA 98118",
      "category": "teach",
      "contact": "jessicac@fulllifecare.org",
      "long": -122.28843,
      "lat": 47.56031,
      "city": "Seattle",
      "imgdir": "./image_folder/teach.png"
   },
   {
      "organizationName": "Full Life Care",
      "description": "Join a Care Team to Support Caregivers of Seniors/Veterans",
      "website": "http://www.fulllifecare.org/",
      "address": "4712 35th Ave S Seattle, WA 98118",
      "category": "caregiver",
      "contact": "jessicac@fulllifecare.org",
      "long": -122.28843,
      "lat": 47.56031,
      "city": "Seattle",
      "imgdir": "./image_folder/caregiver.png"
   },
   {
      "organizationName": "Sound Generations",
      "description": "Meals on Wheels - Renton: Volunteer Backup Caller Needed!",
      "website": "https://soundgenerations.org/",
      "address": "352 Kirkland Avenue WA 98033",
      "category": "admin",
      "contact": "info@soundgenerations.org",
      "long": -122.20105,
      "lat": 47.67637,
      "city": "Kirkland",
      "imgdir": "./image_folder/admin.png"
   },
   {
      "organizationName": "FareStart",
      "description": "Write Letters for FareStart Hunger Relief Meals for the Holidays!",
      "website": "http://www.farestart.org/",
      "address": "700 Virginia Street Seattle, WA 98101",
      "category": "marketing",
      "contact": "volunteer@farestart.org",
      "long": -122.33741,
      "lat": 47.61543,
      "city": "Seattle",
      "imgdir": "./image_folder/marketing.png"
   },
   {
      "organizationName": "Washington Trails Association",
      "description": "Volunteer to help build a new trail at Slavin Conservation Area",
      "website": "http://www.wta.org/",
      "address": "705 2nd Ave. Suite 300 Seattle, WA 98104",
      "category": "physical labor",
      "contact": "hweiler@wta.org",
      "long": -122.33362,
      "lat": 47.60319,
      "city": "Seattle",
      "imgdir": "./image_folder/labor.png"
   },
   {
      "organizationName": "NAOMI",
      "description": "General Cleaning for Move-In",
      "website": "http://www.naomicommunity.org/",
      "address": "303 E Indiana Spokane, WA 99207",
      "category": "physical labor",
      "contact": "angela@naomicommunity.org",
      "long": -117.40594,
      "lat": 47.67544,
      "city": "Spokane",
      "imgdir": "./image_folder/labor.png"
   },
   {
      "organizationName": "Multicultural Child and Family Hope Center",
      "description": "Math Tutor for Elementary Kids",
      "website": "https://mcfhc.org/",
      "address": "2102 S 23rd St Tacoma, WA 98405",
      "category": "education",
      "contact": "info@mcfhc.org",
      "long": -122.46433,
      "lat": 47.23897,
      "city": "Tacoma",
      "imgdir": "./image_folder/education.png"
   },
   {
      "organizationName": "Multicultural Child and Family Hope Center",
      "description": "Reading Tutor for Elementary Kids",
      "website": "https://mcfhc.org/",
      "address": "2102 S 23rd St Tacoma, WA 98405",
      "category": "education",
      "contact": "info@mcfhc.org",
      "long": -122.46433,
      "lat": 47.23897,
      "city": "Tacoma",
      "imgdir": "./image_folder/education.png"
   },
   {
      "organizationName": "Multicultural Child and Family Hope Center",
      "description": "Art Tutor for Elementary Kids",
      "website": "https://mcfhc.org/",
      "address": "2102 S 23rd St Tacoma, WA 98405",
      "category": "education",
      "contact": "info@mcfhc.org",
      "long": -122.46433,
      "lat": 47.23897,
      "city": "Tacoma",
      "imgdir": "./image_folder/education.png"
   },
   {
      "organizationName": "Multicultural Child and Family Hope Center",
      "description": "Dance Instructor for Elementary Kids",
      "website": "https://mcfhc.org/",
      "address": "2102 S 23rd St Tacoma, WA 98405",
      "category": "education",
      "contact": "info@mcfhc.org",
      "long": -122.46433,
      "lat": 47.23897,
      "city": "Tacoma",
      "imgdir": "./image_folder/education.png"
   },
   {
      "organizationName": "American Red Cross",
      "description": "Disaster Action Team Recovery Team Member",
      "website": "https://www.redcross.org/",
      "address": "1235 South Tacoma Way Tacoma, WA 98409",
      "category": "clerical",
      "contact": "support@redcrosstraining.org",
      "long": -122.45036,
      "lat": 47.23159,
      "city": "Tacoma",
      "imgdir": "./image_folder/clerical.png"
   },
   {
      "organizationName": "American Red Cross",
      "description": "Disaster Action Team Volunteers",
      "website": "https://www.redcross.org/",
      "address": "1235 South Tacoma Way Tacoma, WA 98409",
      "category": "food prep",
      "contact": "support@redcrosstraining.org",
      "long": -122.45036,
      "lat": 47.23159,
      "city": "Tacoma",
      "imgdir": "./image_folder/mealprep.png"
   },
   {
      "organizationName": "American Red Cross",
      "description": "Volunteer Responder Opportunities",
      "website": "https://www.redcross.org/",
      "address": "1235 South Tacoma Way Tacoma, WA 98409",
      "category": "food prep",
      "contact": "support@redcrosstraining.org",
      "long": -122.45036,
      "lat": 47.23159,
      "city": "Tacoma",
      "imgdir": "./image_folder/mealprep.png"
   },
   {
      "organizationName": "Meals on Wheels Spokane",
      "description": "Kitchen Crew - Making meals for homebound seniors",
      "website": "http://mowspokane.org/",
      "address": "1222 West 2nd Avenue Spokane, WA 99201",
      "category": "food prep",
      "contact": "volunteer@mowspokane.org",
      "long": -117.43041,
      "lat": 47.65485,
      "city": "Spokane",
      "imgdir": "./image_folder/mealprep.png"
   },
   {
      "organizationName": "United Way of Pierce County",
      "description": "'Everything But The Turkey' Food Drive",
      "website": "http://www.uwpc.org/",
      "address": "1501 Pacific Ave Ste 400 Tacoma, WA 98402",
      "category": "basic needs",
      "contact": "contactus@uwpc.org",
      "long": -122.43727,
      "lat": 47.24912,
      "city": "Tacoma",
      "imgdir": "./image_folder/basicneeds.png"
   },
   {
      "organizationName": "United Way of Pierce County",
      "description": "DIY Project - Season of Caring",
      "website": "http://www.uwpc.org/",
      "address": "1501 Pacific Ave Ste 400 Tacoma, WA 98402",
      "category": "basic needs",
      "contact": "contactus@uwpc.org",
      "long": -122.43727,
      "lat": 47.24912,
      "city": "Tacoma",
      "imgdir": "./image_folder/basicneeds.png"
   },
   {
      "organizationName": "Hunger Intervention Program",
      "description": "Prep Cooks for Senior Meal Program - MONDAYS",
      "website": "http://www.hungerintervention.org/",
      "address": "3841 NE 123rd St. Seattle, WA 98125",
      "category": "meal service",
      "contact": "info@hungerintervention.org",
      "long": -122.28583,
      "lat": 47.71704,
      "city": "Seattle",
      "imgdir": "./image_folder/mealservice.png"
   },
   {
      "organizationName": "Sound Generations",
      "description": "Meals on Wheels: Kirkland - Deliver Meals and a Smile!",
      "website": "https://soundgenerations.org/",
      "address": "352 Kirkland Ave Kirkland, WA 98033",
      "category": "meal service",
      "contact": "info@soundgenerations.org",
      "long": -122.20105,
      "lat": 47.67637,
      "city": "Kirkland",
      "imgdir": "./image_folder/mealservice.png"
   },
   {
      "organizationName": "Lincoln Theatre",
      "description": "Lincoln Theatre - Concession Stand & Auditorium Volunteers",
      "website": "https://lincolntheatre.org/",
      "address": "712 S First St Mount Vernon, WA 98273",
      "category": "meal service",
      "contact": "brandy@lincolntheatre.org",
      "long": -122.33851,
      "lat": 48.41787,
      "city": "Mount Vernon",
      "imgdir": "./image_folder/mealservice.png"
   },
   {
      "organizationName": "Skagit Domestic Violence and Sexual Assault Services",
      "description": "Task Force Note Taker",
      "website": "https://www.skagitdvsas.org/",
      "address": "1521-B Leigh Way Mount Vernon, WA 98273",
      "category": "advocacy",
      "contact": "volunteer_coord@skagitdvsas.org",
      "long": -122.32858,
      "lat": 48.43468,
      "city": "Mount Vernon",
      "imgdir": "./image_folder/advocacy.png"
   },
   {
      "organizationName": "Cancer Can't",
      "description": "Cancer Can't Volunteer Transportation Program",
      "website": "http://www.cancercant.com/",
      "address": "PO Box 336 Four Lakes, WA 99014",
      "category": "basic needs",
      "contact": "emily@cancercant.com",
      "long": -117.59606,
      "lat": 47.56132,
      "city": "Four Lakes",
      "imgdir": "./image_folder/basicneeds.png"
   },
   {
      "organizationName": "American Red Cross",
      "description": "Start Your Red Cross Journey Today!",
      "website": "https://www.redcross.org/volunteer/become-a-volunteer.html",
      "address": "315 W Nora St Spokane, WA 99205",
      "category": "disaster",
      "contact": "kari.strain@redcross.org",
      "long": -122.45036,
      "lat": 47.23159,
      "city": "Spokane",
      "imgdir": "./image_folder/disaster.png"
   },
   {
      "organizationName": "Seattle Angels",
      "description": "Youth in Foster Care Need You!",
      "website": "https://www.seattleangels.org/",
      "address": "4616 25th Ave. NE PMB 313 Seattle, WA 98015",
      "category": "caregiver",
      "contact": "info@seattleangels.org",
      "long": -122.30013,
      "lat": 47.66238,
      "city": "Seattle",
      "imgdir": "./image_folder/caregiver.png"
   },
   {
      "organizationName": "Backpack Brigade",
      "description": "Prep food for homeless students!",
      "website": "https://www.backpackbrigade.org/",
      "address": "1729 1st ave so Seattle, WA 98134",
      "category": "food prep",
      "contact": "nichelle@backpackbrigade.org",
      "long": -122.33472,
      "lat": 47.58734,
      "city": "Seattle",
      "imgdir": "./image_folder/mealprep.png"
   },
   {
      "organizationName": "Bridge Disability Ministries",
      "description": "Let's Talk!",
      "website": "https://bridgemin.org/",
      "address": "12356 Northup Way, Suite 103 Bellevue, WA 98005",
      "category": "advocacy",
      "contact": "bridge@bridgemin.org",
      "long": -122.17627,
      "lat": 47.63034,
      "city": "Bellevue",
      "imgdir": "./image_folder/advocacy.png"
   },
   {
      "organizationName": "Real Change",
      "description": "Write BOOK REVIEWS for the Award-Winning Real Change Newspaper!",
      "website": "https://www.realchangenews.org/",
      "address": "219 1st Ave. S. Suite 220 Seattle, WA 98104",
      "category": "advocacy",
      "contact": "volunteer@realchangenews.org",
      "long": -122.33459,
      "lat": 47.60024,
      "city": "Seattle",
      "imgdir": "./image_folder/advocacy.png"
   },
   {
      "organizationName": "Pongo Poetry Project",
      "description": "Inspire Healing & Growth in Youth Through Poetry Writing",
      "website": "https://www.pongoteenwriting.org/",
      "address": "153 14th Ave Seattle, WA 98122",
      "category": "health",
      "contact": "developmentmanager@pongoteenwriting.org",
      "long": -122.31462,
      "lat": 47.60283,
      "city": "Seattle",
      "imgdir": "./image_folder/health.png"
   }
]
